{
"title": {
"text": "Flow Map"
},
"subtitle": {
 "text": "Example"
},
"series": [{
"type": "map",
"name": "Flow",
"data": [
{
"from": {
"name": "Wien",
"lat": 48.2066,
"lon": 16.37341
},
"to":{
"name": "Wien",
"lat": 48.2066,
"lon": 16.37341
},
"weight": 100
},
{
"from": {
"name": "Wien",
"lat": 48.2066,
"lon": 16.37341
},
"to":{
"name": "Wien",
"lat": 48.2066,
"lon": 16.37341
},
"weight": 100
},
{
"from": {
"name": "Wien",
"lat": 48.2066,
"lon": 16.37341
},
"to":{
"name": "Wien",
"lat": 48.2066,
"lon": 16.37341
},
"weight": 100
},
{
"from": {
"name": "Wien",
"lat": 48.2066,
"lon": 16.37341
},
"to":{
"name": "Wien",
"lat": 48.2066,
"lon": 16.37341
},
"weight": 100
},
{
"from": {
"name": "Miskolc",
"lat": 48.10306,
"lon": 20.77806
},
"to":{
"name": "Wien",
"lat": 48.2066,
"lon": 16.37341
},
"weight": 100
},
{
"from": {
"name": "Miskolc",
"lat": 48.10306,
"lon": 20.77806
},
"to":{
"name": "Wien",
"lat": 48.2066,
"lon": 16.37341
},
"weight": 100
},
{
"from": {
"name": "Wien",
"lat": 48.2066,
"lon": 16.37341
},
"to":{
"name": "Miskolc",
"lat": 48.10306,
"lon": 20.77806
},
"weight": 100
},
{
"from": {
"name": "Miskolc",
"lat": 48.10306,
"lon": 20.77806
},
"to":{
"name": "Wien",
"lat": 48.2066,
"lon": 16.37341
},
"weight": 100
},
{
"from": {
"name": "Wien",
"lat": 48.2066,
"lon": 16.37341
},
"to":{
"name": "Miskolc",
"lat": 48.10306,
"lon": 20.77806
},
"weight": 100
},
{
"from": {
"name": "Wien",
"lat": 48.2066,
"lon": 16.37341
},
"to":{
"name": "Wien",
"lat": 48.2066,
"lon": 16.37341
},
"weight": 100
},
{
"from": {
"name": "Wien",
"lat": 48.2066,
"lon": 16.37341
},
"to":{
"name": "Wien",
"lat": 48.2066,
"lon": 16.37341
},
"weight": 100
},
{
"from": {
"name": "Wien",
"lat": 48.2066,
"lon": 16.37341
},
"to":{
"name": "Wien",
"lat": 48.2066,
"lon": 16.37341
},
"weight": 100
},
{
"from": {
"name": "Wien",
"lat": 48.2066,
"lon": 16.37341
},
"to":{
"name": "Wien",
"lat": 48.2066,
"lon": 16.37341
},
"weight": 100
},
{
"from": {
"name": "Wien",
"lat": 48.2066,
"lon": 16.37341
},
"to":{
"name": "Wien",
"lat": 48.2066,
"lon": 16.37341
},
"weight": 100
},
{
"from": {
"name": "Wien",
"lat": 48.2066,
"lon": 16.37341
},
"to":{
"name": "Wien",
"lat": 48.2066,
"lon": 16.37341
},
"weight": 100
},
{
"from": {
"name": "Wien",
"lat": 48.2066,
"lon": 16.37341
},
"to":{
"name": "Wien",
"lat": 48.2066,
"lon": 16.37341
},
"weight": 100
},
{
"from": {
"name": "Wien",
"lat": 48.2066,
"lon": 16.37341
},
"to":{
"name": "Wien",
"lat": 48.2066,
"lon": 16.37341
},
"weight": 100
},
{
"from": {
"name": "Wien",
"lat": 48.2066,
"lon": 16.37341
},
"to":{
"name": "Wien",
"lat": 48.2066,
"lon": 16.37341
},
"weight": 100
},
{
"from": {
"name": "Wien",
"lat": 48.2066,
"lon": 16.37341
},
"to":{
"name": "Wien",
"lat": 48.2066,
"lon": 16.37341
},
"weight": 100
},
{
"from": {
"name": "Unterach am Attersee",
"lat": 47.80494,
"lon": 13.48728
},
"to":{
"name": "Wien",
"lat": 48.2066,
"lon": 16.37341
},
"weight": 100
},
{
"from": {
"name": "Unterach am Attersee",
"lat": 47.80494,
"lon": 13.48728
},
"to":{
"name": "Wien",
"lat": 48.2066,
"lon": 16.37341
},
"weight": 100
},
{
"from": {
"name": "Unterach am Attersee",
"lat": 47.80494,
"lon": 13.48728
},
"to":{
"name": "Wien",
"lat": 48.2066,
"lon": 16.37341
},
"weight": 100
},
{
"from": {
"name": "Unterach am Attersee",
"lat": 47.80494,
"lon": 13.48728
},
"to":{
"name": "Wien",
"lat": 48.2066,
"lon": 16.37341
},
"weight": 100
},
{
"from": {
"name": "Unterach am Attersee",
"lat": 47.80494,
"lon": 13.48728
},
"to":{
"name": "Wien",
"lat": 48.2066,
"lon": 16.37341
},
"weight": 100
},
{
"from": {
"name": "Wien",
"lat": 48.2066,
"lon": 16.37341
},
"to":{
"name": "Wien",
"lat": 48.2066,
"lon": 16.37341
},
"weight": 100
},
{
"from": {
"name": "Wien",
"lat": 48.2066,
"lon": 16.37341
},
"to":{
"name": "Wien",
"lat": 48.2066,
"lon": 16.37341
},
"weight": 100
},
{
"from": {
"name": "Wien",
"lat": 48.2066,
"lon": 16.37341
},
"to":{
"name": "Wien",
"lat": 48.2066,
"lon": 16.37341
},
"weight": 100
},
{
"from": {
"name": "Wien",
"lat": 48.2066,
"lon": 16.37341
},
"to":{
"name": "Wien",
"lat": 48.2066,
"lon": 16.37341
},
"weight": 100
},
{
"from": {
"name": "Wien",
"lat": 48.2066,
"lon": 16.37341
},
"to":{
"name": "Wien",
"lat": 48.2066,
"lon": 16.37341
},
"weight": 100
},
{
"from": {
"name": "Wien",
"lat": 48.2066,
"lon": 16.37341
},
"to":{
"name": "Wien",
"lat": 48.2066,
"lon": 16.37341
},
"weight": 100
},
{
"from": {
"name": "Wien",
"lat": 48.2066,
"lon": 16.37341
},
"to":{
"name": "Wien",
"lat": 48.2066,
"lon": 16.37341
},
"weight": 100
},
{
"from": {
"name": "Wien",
"lat": 48.2066,
"lon": 16.37341
},
"to":{
"name": "Wien",
"lat": 48.2066,
"lon": 16.37341
},
"weight": 100
},
{
"from": {
"name": "Wien",
"lat": 48.2066,
"lon": 16.37341
},
"to":{
"name": "Wien",
"lat": 48.2066,
"lon": 16.37341
},
"weight": 100
},
{
"from": {
"name": "Wien",
"lat": 48.2066,
"lon": 16.37341
},
"to":{
"name": "Wien",
"lat": 48.2066,
"lon": 16.37341
},
"weight": 100
},
{
"from": {
"name": "Bad Ischl",
"lat": 47.71109,
"lon": 13.61893
},
"to":{
"name": "Wien",
"lat": 48.2066,
"lon": 16.37341
},
"weight": 100
},
{
"from": {
"name": "Wien",
"lat": 48.2066,
"lon": 16.37341
},
"to":{
"name": "Bad Ischl",
"lat": 47.71109,
"lon": 13.61893
},
"weight": 100
},
{
"from": {
"name": "Wien",
"lat": 48.2066,
"lon": 16.37341
},
"to":{
"name": "Wien",
"lat": 48.2066,
"lon": 16.37341
},
"weight": 100
},
{
"from": {
"name": "Wien",
"lat": 48.2066,
"lon": 16.37341
},
"to":{
"name": "Wien",
"lat": 48.2066,
"lon": 16.37341
},
"weight": 100
},
{
"from": {
"name": "Dölsach",
"lat": 46.85721,
"lon": 12.83416
},
"to":{
"name": "Wien",
"lat": 48.2066,
"lon": 16.37341
},
"weight": 100
},
{
"from": {
"name": "Wien",
"lat": 48.2066,
"lon": 16.37341
},
"to":{
"name": "Dölsach",
"lat": 46.85721,
"lon": 12.83416
},
"weight": 100
},
{
"from": {
"name": "Cortina d'Ampezzo",
"lat": 46.5369,
"lon": 12.13903
},
"to":{
"name": "Wien",
"lat": 48.2066,
"lon": 16.37341
},
"weight": 100
},
{
"from": {
"name": "Wien",
"lat": 48.2066,
"lon": 16.37341
},
"to":{
"name": "Dölsach",
"lat": 46.85721,
"lon": 12.83416
},
"weight": 100
},
{
"from": {
"name": "Heiligenblut am Großglockner",
"lat": 47.03979,
"lon": 12.84345
},
"to":{
"name": "Wien",
"lat": 48.2066,
"lon": 16.37341
},
"weight": 100
},
{
"from": {
"name": "Iselsberg",
"lat": 46.83806,
"lon": 12.84944
},
"to":{
"name": "Wien",
"lat": 48.2066,
"lon": 16.37341
},
"weight": 100
},
{
"from": {
"name": "Wien",
"lat": 48.2066,
"lon": 16.37341
},
"to":{
"name": "Wien",
"lat": 48.2066,
"lon": 16.37341
},
"weight": 100
},
{
"from": {
"name": "Wien",
"lat": 48.2066,
"lon": 16.37341
},
"to":{
"name": "Wien",
"lat": 48.2066,
"lon": 16.37341
},
"weight": 100
},
{
"from": {
"name": "Wien",
"lat": 48.2066,
"lon": 16.37341
},
"to":{
"name": "Wien",
"lat": 48.2066,
"lon": 16.37341
},
"weight": 100
},
{
"from": {
"name": "Wien",
"lat": 48.2066,
"lon": 16.37341
},
"to":{
"name": "Wien",
"lat": 48.2066,
"lon": 16.37341
},
"weight": 100
},
{
"from": {
"name": "Wien",
"lat": 48.2066,
"lon": 16.37341
},
"to":{
"name": "Wien",
"lat": 48.2066,
"lon": 16.37341
},
"weight": 100
},
{
"from": {
"name": "Wien",
"lat": 48.2066,
"lon": 16.37341
},
"to":{
"name": "Wien",
"lat": 48.2066,
"lon": 16.37341
},
"weight": 100
},
{
"from": {
"name": "Wien",
"lat": 48.2066,
"lon": 16.37341
},
"to":{
"name": "Wien",
"lat": 48.2066,
"lon": 16.37341
},
"weight": 100
},
{
"from": {
"name": "Wien",
"lat": 48.2066,
"lon": 16.37341
},
"to":{
"name": "Wien",
"lat": 48.2066,
"lon": 16.37341
},
"weight": 100
},
{
"from": {
"name": "Wien",
"lat": 48.2066,
"lon": 16.37341
},
"to":{
"name": "Wien",
"lat": 48.2066,
"lon": 16.37341
},
"weight": 100
},
{
"from": {
"name": "Wien",
"lat": 48.2066,
"lon": 16.37341
},
"to":{
"name": "Wien",
"lat": 48.2066,
"lon": 16.37341
},
"weight": 100
},
{
"from": {
"name": "Wien",
"lat": 48.2066,
"lon": 16.37341
},
"to":{
"name": "Wien",
"lat": 48.2066,
"lon": 16.37341
},
"weight": 100
},
{
"from": {
"name": "Wien",
"lat": 48.2066,
"lon": 16.37341
},
"to":{
"name": "Wien",
"lat": 48.2066,
"lon": 16.37341
},
"weight": 100
},
{
"from": {
"name": "Wien",
"lat": 48.2066,
"lon": 16.37341
},
"to":{
"name": "Wien",
"lat": 48.2066,
"lon": 16.37341
},
"weight": 100
},
{
"from": {
"name": "Wien",
"lat": 48.2066,
"lon": 16.37341
},
"to":{
"name": "Wien",
"lat": 48.2066,
"lon": 16.37341
},
"weight": 100
},
{
"from": {
"name": "Wien",
"lat": 48.2066,
"lon": 16.37341
},
"to":{
"name": "Wien",
"lat": 48.2066,
"lon": 16.37341
},
"weight": 100
},
{
"from": {
"name": "Wien",
"lat": 48.2066,
"lon": 16.37341
},
"to":{
"name": "Bad Ischl",
"lat": 47.71109,
"lon": 13.61893
},
"weight": 100
},
{
"from": {
"name": "Wien",
"lat": 48.2066,
"lon": 16.37341
},
"to":{
"name": "Ischl",
"lat": 47.71109,
"lon": 13.61893
},
"weight": 100
},
{
"from": {
"name": "Wien",
"lat": 48.2066,
"lon": 16.37341
},
"to":{
"name": "Wien",
"lat": 48.2066,
"lon": 16.37341
},
"weight": 100
},
{
"from": {
"name": "Wien",
"lat": 48.2066,
"lon": 16.37341
},
"to":{
"name": "Wien",
"lat": 48.2066,
"lon": 16.37341
},
"weight": 100
},
{
"from": {
"name": "Wien",
"lat": 48.2066,
"lon": 16.37341
},
"to":{
"name": "Wien",
"lat": 48.2066,
"lon": 16.37341
},
"weight": 100
},
{
"from": {
"name": "Wien",
"lat": 48.2066,
"lon": 16.37341
},
"to":{
"name": "Wien",
"lat": 48.2066,
"lon": 16.37341
},
"weight": 100
},
{
"from": {
"name": "Wien",
"lat": 48.2066,
"lon": 16.37341
},
"to":{
"name": "Wien",
"lat": 48.2066,
"lon": 16.37341
},
"weight": 100
},
{
"from": {
"name": "Wien",
"lat": 48.2066,
"lon": 16.37341
},
"to":{
"name": "Wien",
"lat": 48.2066,
"lon": 16.37341
},
"weight": 100
},
{
"from": {
"name": "Wien",
"lat": 48.2066,
"lon": 16.37341
},
"to":{
"name": "Wien",
"lat": 48.2066,
"lon": 16.37341
},
"weight": 100
},
{
"from": {
"name": "Wien",
"lat": 48.2066,
"lon": 16.37341
},
"to":{
"name": "Wien",
"lat": 48.2066,
"lon": 16.37341
},
"weight": 100
},
{
"from": {
"name": "Wien",
"lat": 48.2066,
"lon": 16.37341
},
"to":{
"name": "Wien",
"lat": 48.2066,
"lon": 16.37341
},
"weight": 100
},
{
"from": {
"name": "Wien",
"lat": 48.2066,
"lon": 16.37341
},
"to":{
"name": "Wien",
"lat": 48.2066,
"lon": 16.37341
},
"weight": 100
},
{
"from": {
"name": "München",
"lat": 48.13743,
"lon": 11.57549
},
"to":{
"name": "Wien",
"lat": 48.2066,
"lon": 16.37341
},
"weight": 100
},
{
"from": {
"name": "Wien",
"lat": 48.2066,
"lon": 16.37341
},
"to":{
"name": "Wien",
"lat": 48.2066,
"lon": 16.37341
},
"weight": 100
},
{
"from": {
"name": "Wien",
"lat": 48.2066,
"lon": 16.37341
},
"to":{
"name": "Wien",
"lat": 48.2066,
"lon": 16.37341
},
"weight": 100
},
{
"from": {
"name": "Wien",
"lat": 48.2066,
"lon": 16.37341
},
"to":{
"name": "Wien",
"lat": 48.2066,
"lon": 16.37341
},
"weight": 100
},
{
"from": {
"name": "Wien",
"lat": 48.2066,
"lon": 16.37341
},
"to":{
"name": "Wien",
"lat": 48.2066,
"lon": 16.37341
},
"weight": 100
},
{
"from": {
"name": "Wien",
"lat": 48.2066,
"lon": 16.37341
},
"to":{
"name": "Wien",
"lat": 48.2066,
"lon": 16.37341
},
"weight": 100
},
{
"from": {
"name": "München",
"lat": 48.13743,
"lon": 11.57549
},
"to":{
"name": "Wien",
"lat": 48.2066,
"lon": 16.37341
},
"weight": 100
},
{
"from": {
"name": "Wien",
"lat": 48.2066,
"lon": 16.37341
},
"to":{
"name": "Bad Ischl",
"lat": 47.71109,
"lon": 13.61893
},
"weight": 100
},
{
"from": {
"name": "Wien",
"lat": 48.2066,
"lon": 16.37341
},
"to":{
"name": "Bad Ischl",
"lat": 47.71109,
"lon": 13.61893
},
"weight": 100
},
{
"from": {
"name": "Wien",
"lat": 48.2066,
"lon": 16.37341
},
"to":{
"name": "Bad Ischl",
"lat": 47.71109,
"lon": 13.61893
},
"weight": 100
},
{
"from": {
"name": "Wien",
"lat": 48.2066,
"lon": 16.37341
},
"to":{
"name": "Wien",
"lat": 48.2066,
"lon": 16.37341
},
"weight": 100
},
{
"from": {
"name": "Wien",
"lat": 48.2066,
"lon": 16.37341
},
"to":{
"name": "Ischl",
"lat": 47.71109,
"lon": 13.61893
},
"weight": 100
},
{
"from": {
"name": "Wien",
"lat": 48.2066,
"lon": 16.37341
},
"to":{
"name": "Bad Ischl",
"lat": 47.71109,
"lon": 13.61893
},
"weight": 100
},
{
"from": {
"name": "Salzburg",
"lat": 47.80067,
"lon": 13.04532
},
"to":{
"name": "München",
"lat": 48.13743,
"lon": 11.57549
},
"weight": 100
},
{
"from": {
"name": "Wien",
"lat": 48.2066,
"lon": 16.37341
},
"to":{
"name": "Wien",
"lat": 48.2066,
"lon": 16.37341
},
"weight": 100
},
{
"from": {
"name": "Wien",
"lat": 48.2066,
"lon": 16.37341
},
"to":{
"name": "Wien",
"lat": 48.2066,
"lon": 16.37341
},
"weight": 100
},
{
"from": {
"name": "Wien",
"lat": 48.2066,
"lon": 16.37341
},
"to":{
"name": "Wien",
"lat": 48.2066,
"lon": 16.37341
},
"weight": 100
},
{
"from": {
"name": "Wien",
"lat": 48.2066,
"lon": 16.37341
},
"to":{
"name": "Wien",
"lat": 48.2066,
"lon": 16.37341
},
"weight": 100
},
{
"from": {
"name": "Wien",
"lat": 48.2066,
"lon": 16.37341
},
"to":{
"name": "Wien",
"lat": 48.2066,
"lon": 16.37341
},
"weight": 100
},
{
"from": {
"name": "Wien",
"lat": 48.2066,
"lon": 16.37341
},
"to":{
"name": "Wien",
"lat": 48.2066,
"lon": 16.37341
},
"weight": 100
},
{
"from": {
"name": "Wien",
"lat": 48.2066,
"lon": 16.37341
},
"to":{
"name": "Wien",
"lat": 48.2066,
"lon": 16.37341
},
"weight": 100
},
{
"from": {
"name": "Wien",
"lat": 48.2066,
"lon": 16.37341
},
"to":{
"name": "Wien",
"lat": 48.2066,
"lon": 16.37341
},
"weight": 100
},
{
"from": {
"name": "Wien",
"lat": 48.2066,
"lon": 16.37341
},
"to":{
"name": "Wien",
"lat": 48.2066,
"lon": 16.37341
},
"weight": 100
},
{
"from": {
"name": "Wien",
"lat": 48.2066,
"lon": 16.37341
},
"to":{
"name": "Trondheim",
"lat": 63.43049,
"lon": 10.39506
},
"weight": 100
},
{
"from": {
"name": "Wien",
"lat": 48.2066,
"lon": 16.37341
},
"to":{
"name": "Trondheim",
"lat": 63.43049,
"lon": 10.39506
},
"weight": 100
},
{
"from": {
"name": "Bad Ischl",
"lat": 47.71109,
"lon": 13.61893
},
"to":{
"name": "Kopenhagen",
"lat": 55.67594,
"lon": 12.56553
},
"weight": 100
},
{
"from": {
"name": "Bad Ischl",
"lat": 47.71109,
"lon": 13.61893
},
"to":{
"name": "Skodsborg",
"lat": 55.8225,
"lon": 12.57324
},
"weight": 100
},
{
"from": {
"name": "Bad Ischl",
"lat": 47.71109,
"lon": 13.61893
},
"to":{
"name": "Skodsborg",
"lat": 55.8225,
"lon": 12.57324
},
"weight": 100
},
{
"from": {
"name": "Wien",
"lat": 48.2066,
"lon": 16.37341
},
"to":{
"name": "Wien",
"lat": 48.2066,
"lon": 16.37341
},
"weight": 100
},
{
"from": {
"name": "Wien",
"lat": 48.2066,
"lon": 16.37341
},
"to":{
"name": "Wien",
"lat": 48.2066,
"lon": 16.37341
},
"weight": 100
},
{
"from": {
"name": "Wien",
"lat": 48.2066,
"lon": 16.37341
},
"to":{
"name": "Wien",
"lat": 48.2066,
"lon": 16.37341
},
"weight": 100
},
{
"from": {
"name": "Wien",
"lat": 48.2066,
"lon": 16.37341
},
"to":{
"name": "Berlin",
"lat": 52.52437,
"lon": 13.41053
},
"weight": 100
},
{
"from": {
"name": "Wien",
"lat": 48.2066,
"lon": 16.37341
},
"to":{
"name": "Berlin",
"lat": 52.52437,
"lon": 13.41053
},
"weight": 100
},
{
"from": {
"name": "Wien",
"lat": 48.2066,
"lon": 16.37341
},
"to":{
"name": "Wien",
"lat": 48.2066,
"lon": 16.37341
},
"weight": 100
},
{
"from": {
"name": "Wien",
"lat": 48.2066,
"lon": 16.37341
},
"to":{
"name": "Wien",
"lat": 48.2066,
"lon": 16.37341
},
"weight": 100
},
{
"from": {
"name": "Teplice",
"lat": 50.6404,
"lon": 13.82451
},
"to":{
"name": "Wien",
"lat": 48.2066,
"lon": 16.37341
},
"weight": 100
},
{
"from": {
"name": "Wien",
"lat": 48.2066,
"lon": 16.37341
},
"to":{
"name": "Wien",
"lat": 48.2066,
"lon": 16.37341
},
"weight": 100
},
{
"from": {
"name": "Wien",
"lat": 48.2066,
"lon": 16.37341
},
"to":{
"name": "Wien",
"lat": 48.2066,
"lon": 16.37341
},
"weight": 100
},
{
"from": {
"name": "Paris",
"lat": 48.85341,
"lon": 2.3488
},
"to":{
"name": "Wien",
"lat": 48.2066,
"lon": 16.37341
},
"weight": 100
},
{
"from": {
"name": "Wien",
"lat": 48.2066,
"lon": 16.37341
},
"to":{
"name": "Wien",
"lat": 48.2066,
"lon": 16.37341
},
"weight": 100
},
{
"from": {
"name": "Wien",
"lat": 48.2066,
"lon": 16.37341
},
"to":{
"name": "Paris",
"lat": 48.85341,
"lon": 2.3488
},
"weight": 100
},
{
"from": {
"name": "Wien",
"lat": 48.2066,
"lon": 16.37341
},
"to":{
"name": "Paris",
"lat": 48.85341,
"lon": 2.3488
},
"weight": 100
},
{
"from": {
"name": "London",
"lat": 51.50853,
"lon": -0.12574
},
"to":{
"name": "Wien",
"lat": 48.2066,
"lon": 16.37341
},
"weight": 100
},
{
"from": {
"name": "Wien",
"lat": 48.2066,
"lon": 16.37341
},
"to":{
"name": "Wien",
"lat": 48.2066,
"lon": 16.37341
},
"weight": 100
},
{
"from": {
"name": "Wien",
"lat": 48.2066,
"lon": 16.37341
},
"to":{
"name": "Ischl",
"lat": 47.71109,
"lon": 13.61893
},
"weight": 100
},
{
"from": {
"name": "Wien",
"lat": 48.2066,
"lon": 16.37341
},
"to":{
"name": "Ischl",
"lat": 47.71109,
"lon": 13.61893
},
"weight": 100
},
{
"from": {
"name": "Wien",
"lat": 48.2066,
"lon": 16.37341
},
"to":{
"name": "Ischl",
"lat": 47.71109,
"lon": 13.61893
},
"weight": 100
},
{
"from": {
"name": "Salzburg",
"lat": 47.80067,
"lon": 13.04532
},
"to":{
"name": "Ischl",
"lat": 47.71109,
"lon": 13.61893
},
"weight": 100
},
{
"from": {
"name": "Wien",
"lat": 48.2066,
"lon": 16.37341
},
"to":{
"name": "Wien",
"lat": 48.2066,
"lon": 16.37341
},
"weight": 100
},
{
"from": {
"name": "Wien",
"lat": 48.2066,
"lon": 16.37341
},
"to":{
"name": "Wien",
"lat": 48.2066,
"lon": 16.37341
},
"weight": 100
},
{
"from": {
"name": "Wien",
"lat": 48.2066,
"lon": 16.37341
},
"to":{
"name": "Wien",
"lat": 48.2066,
"lon": 16.37341
},
"weight": 100
},
{
"from": {
"name": "Wien",
"lat": 48.2066,
"lon": 16.37341
},
"to":{
"name": "Wien",
"lat": 48.2066,
"lon": 16.37341
},
"weight": 100
},
{
"from": {
"name": "Wien",
"lat": 48.2066,
"lon": 16.37341
},
"to":{
"name": "Wien",
"lat": 48.2066,
"lon": 16.37341
},
"weight": 100
},
{
"from": {
"name": "Wien",
"lat": 48.2066,
"lon": 16.37341
},
"to":{
"name": "Wien",
"lat": 48.2066,
"lon": 16.37341
},
"weight": 100
},
{
"from": {
"name": "Wien",
"lat": 48.2066,
"lon": 16.37341
},
"to":{
"name": "Wien",
"lat": 48.2066,
"lon": 16.37341
},
"weight": 100
},
{
"from": {
"name": "Wien",
"lat": 48.2066,
"lon": 16.37341
},
"to":{
"name": "Wien",
"lat": 48.2066,
"lon": 16.37341
},
"weight": 100
},
{
"from": {
"name": "Wien",
"lat": 48.2066,
"lon": 16.37341
},
"to":{
"name": "Wien",
"lat": 48.2066,
"lon": 16.37341
},
"weight": 100
},
{
"from": {
"name": "Wien",
"lat": 48.2066,
"lon": 16.37341
},
"to":{
"name": "Wien",
"lat": 48.2066,
"lon": 16.37341
},
"weight": 100
},
{
"from": {
"name": "Wien",
"lat": 48.2066,
"lon": 16.37341
},
"to":{
"name": "Wien",
"lat": 48.2066,
"lon": 16.37341
},
"weight": 100
},
{
"from": {
"name": "Wien",
"lat": 48.2066,
"lon": 16.37341
},
"to":{
"name": "Wien",
"lat": 48.2066,
"lon": 16.37341
},
"weight": 100
},
{
"from": {
"name": "Wien",
"lat": 48.2066,
"lon": 16.37341
},
"to":{
"name": "Wien",
"lat": 48.2066,
"lon": 16.37341
},
"weight": 100
},
{
"from": {
"name": "Wien",
"lat": 48.2066,
"lon": 16.37341
},
"to":{
"name": "Wien",
"lat": 48.2066,
"lon": 16.37341
},
"weight": 100
},
{
"from": {
"name": "Wien",
"lat": 48.2066,
"lon": 16.37341
},
"to":{
"name": "Wien",
"lat": 48.2066,
"lon": 16.37341
},
"weight": 100
},
{
"from": {
"name": "Wien",
"lat": 48.2066,
"lon": 16.37341
},
"to":{
"name": "Berlin",
"lat": 52.52437,
"lon": 13.41053
},
"weight": 100
},
{
"from": {
"name": "Wien",
"lat": 48.2066,
"lon": 16.37341
},
"to":{
"name": "Wien",
"lat": 48.2066,
"lon": 16.37341
},
"weight": 100
},
{
"from": {
"name": "Wien",
"lat": 48.2066,
"lon": 16.37341
},
"to":{
"name": "Wien",
"lat": 48.2066,
"lon": 16.37341
},
"weight": 100
},
{
"from": {
"name": "Wien",
"lat": 48.2066,
"lon": 16.37341
},
"to":{
"name": "Wien",
"lat": 48.2066,
"lon": 16.37341
},
"weight": 100
},
{
"from": {
"name": "Wien",
"lat": 48.2066,
"lon": 16.37341
},
"to":{
"name": "Wien",
"lat": 48.2066,
"lon": 16.37341
},
"weight": 100
},
{
"from": {
"name": "Unterach",
"lat": 47.80494,
"lon": 13.48728
},
"to":{
"name": "Ischl",
"lat": 47.71109,
"lon": 13.61893
},
"weight": 100
},
{
"from": {
"name": "Bad Ischl",
"lat": 47.71109,
"lon": 13.61893
},
"to":{
"name": "Wien",
"lat": 48.2066,
"lon": 16.37341
},
"weight": 100
},
{
"from": {
"name": "Teplice",
"lat": 50.6404,
"lon": 13.82451
},
"to":{
"name": "Wien",
"lat": 48.2066,
"lon": 16.37341
},
"weight": 100
},
{
"from": {
"name": "Wien",
"lat": 48.2066,
"lon": 16.37341
},
"to":{
"name": "Berlin",
"lat": 52.52437,
"lon": 13.41053
},
"weight": 100
},
{
"from": {
"name": "Wien",
"lat": 48.2066,
"lon": 16.37341
},
"to":{
"name": "Wien",
"lat": 48.2066,
"lon": 16.37341
},
"weight": 100
},
{
"from": {
"name": "Wien",
"lat": 48.2066,
"lon": 16.37341
},
"to":{
"name": "Wien",
"lat": 48.2066,
"lon": 16.37341
},
"weight": 100
},
{
"from": {
"name": "Salzburg",
"lat": 47.80067,
"lon": 13.04532
},
"to":{
"name": "Wien",
"lat": 48.2066,
"lon": 16.37341
},
"weight": 100
},
{
"from": {
"name": "Wien",
"lat": 48.2066,
"lon": 16.37341
},
"to":{
"name": "Wien",
"lat": 48.2066,
"lon": 16.37341
},
"weight": 100
},
{
"from": {
"name": "Wien",
"lat": 48.2066,
"lon": 16.37341
},
"to":{
"name": "Wien",
"lat": 48.2066,
"lon": 16.37341
},
"weight": 100
},
{
"from": {
"name": "Wien",
"lat": 48.2066,
"lon": 16.37341
},
"to":{
"name": "Wien",
"lat": 48.2066,
"lon": 16.37341
},
"weight": 100
},
{
"from": {
"name": "Wien",
"lat": 48.2066,
"lon": 16.37341
},
"to":{
"name": "Wien",
"lat": 48.2066,
"lon": 16.37341
},
"weight": 100
},
{
"from": {
"name": "Wien",
"lat": 48.2066,
"lon": 16.37341
},
"to":{
"name": "Wien",
"lat": 48.2066,
"lon": 16.37341
},
"weight": 100
},
{
"from": {
"name": "Strobl",
"lat": 47.71667,
"lon": 13.48333
},
"to":{
"name": "Pontresina",
"lat": 46.4955,
"lon": 9.90126
},
"weight": 100
},
{
"from": {
"name": "Wien",
"lat": 48.2066,
"lon": 16.37341
},
"to":{
"name": "Wien",
"lat": 48.2066,
"lon": 16.37341
},
"weight": 100
},
{
"from": {
"name": "Salzburg",
"lat": 48.2066,
"lon": 16.37341
},
"to":{
"name": "Salzburg",
"lat": 48.2066,
"lon": 16.37341
},
"weight": 100
},
{
"from": {
"name": "Versailles",
"lat": 48.80359,
"lon": 2.13424
},
"to":{
"name": "Wien",
"lat": 48.2066,
"lon": 16.37341
},
"weight": 100
},
{
"from": {
"name": "Vahrn",
"lat": 46.73901,
"lon": 11.63749
},
"to":{
"name": "Wien",
"lat": 48.2066,
"lon": 16.37341
},
"weight": 100
},
{
"from": {
"name": "Wien",
"lat": 48.2066,
"lon": 16.37341
},
"to":{
"name": "Wien",
"lat": 48.2066,
"lon": 16.37341
},
"weight": 100
},
{
"from": {
"name": "Wien",
"lat": 48.2066,
"lon": 16.37341
},
"to":{
"name": "Wien",
"lat": 48.2066,
"lon": 16.37341
},
"weight": 100
},
{
"from": {
"name": "Berlin",
"lat": 52.52437,
"lon": 13.41053
},
"to":{
"name": "Wien",
"lat": 48.2066,
"lon": 16.37341
},
"weight": 100
},
{
"from": {
"name": "Wien",
"lat": 48.2066,
"lon": 16.37341
},
"to":{
"name": "Wien",
"lat": 48.2066,
"lon": 16.37341
},
"weight": 100
},
{
"from": {
"name": "Berlin",
"lat": 52.52437,
"lon": 13.41053
},
"to":{
"name": "Wien",
"lat": 48.2066,
"lon": 16.37341
},
"weight": 100
},
{
"from": {
"name": "Wien",
"lat": 48.2066,
"lon": 16.37341
},
"to":{
"name": "Wien",
"lat": 48.2066,
"lon": 16.37341
},
"weight": 100
},
{
"from": {
"name": "Wien",
"lat": 48.2066,
"lon": 16.37341
},
"to":{
"name": "Wien",
"lat": 48.2066,
"lon": 16.37341
},
"weight": 100
},
{
"from": {
"name": "Wien",
"lat": 48.2066,
"lon": 16.37341
},
"to":{
"name": "Berlin",
"lat": 52.52437,
"lon": 13.41053
},
"weight": 100
},
{
"from": {
"name": "Wien",
"lat": 48.2066,
"lon": 16.37341
},
"to":{
"name": "Wien",
"lat": 48.2066,
"lon": 16.37341
},
"weight": 100
},
{
"from": {
"name": "Wien",
"lat": 48.2066,
"lon": 16.37341
},
"to":{
"name": "Wien",
"lat": 48.2066,
"lon": 16.37341
},
"weight": 100
},
{
"from": {
"name": "Wien",
"lat": 48.2066,
"lon": 16.37341
},
"to":{
"name": "Wien",
"lat": 48.2066,
"lon": 16.37341
},
"weight": 100
},
{
"from": {
"name": "Wien",
"lat": 48.2066,
"lon": 16.37341
},
"to":{
"name": "Wien",
"lat": 48.2066,
"lon": 16.37341
},
"weight": 100
},
{
"from": {
"name": "Wien",
"lat": 48.2066,
"lon": 16.37341
},
"to":{
"name": "Wien",
"lat": 48.2066,
"lon": 16.37341
},
"weight": 100
},
{
"from": {
"name": "Wien",
"lat": 48.2066,
"lon": 16.37341
},
"to":{
"name": "Wien",
"lat": 48.2066,
"lon": 16.37341
},
"weight": 100
},
{
"from": {
"name": "Wien",
"lat": 48.2066,
"lon": 16.37341
},
"to":{
"name": "Wien",
"lat": 48.2066,
"lon": 16.37341
},
"weight": 100
},
{
"from": {
"name": "Wien",
"lat": 48.2066,
"lon": 16.37341
},
"to":{
"name": "Wien",
"lat": 48.2066,
"lon": 16.37341
},
"weight": 100
},
{
"from": {
"name": "Trient",
"lat": 46.06787,
"lon": 11.12108
},
"to":{
"name": "Wien",
"lat": 48.2066,
"lon": 16.37341
},
"weight": 100
},
{
"from": {
"name": "Bologna",
"lat": 44.49381,
"lon": 11.33875
},
"to":{
"name": "Wien",
"lat": 48.2066,
"lon": 16.37341
},
"weight": 100
},
{
"from": {
"name": "Florenz",
"lat": 43.77925,
"lon": 11.24626
},
"to":{
"name": "Wien",
"lat": 48.2066,
"lon": 16.37341
},
"weight": 100
},
{
"from": {
"name": "Wien",
"lat": 48.2066,
"lon": 16.37341
},
"to":{
"name": "Wien",
"lat": 48.2066,
"lon": 16.37341
},
"weight": 100
},
{
"from": {
"name": "Florenz",
"lat": 43.77925,
"lon": 11.24626
},
"to":{
"name": "Wien",
"lat": 48.2066,
"lon": 16.37341
},
"weight": 100
},
{
"from": {
"name": "Wien",
"lat": 48.2066,
"lon": 16.37341
},
"to":{
"name": "Wien",
"lat": 48.2066,
"lon": 16.37341
},
"weight": 100
},
{
"from": {
"name": "Wien",
"lat": 48.2066,
"lon": 16.37341
},
"to":{
"name": "Wien",
"lat": 48.2066,
"lon": 16.37341
},
"weight": 100
},
{
"from": {
"name": "Wien",
"lat": 48.2066,
"lon": 16.37341
},
"to":{
"name": "Wien",
"lat": 48.2066,
"lon": 16.37341
},
"weight": 100
},
{
"from": {
"name": "Wien",
"lat": 48.2066,
"lon": 16.37341
},
"to":{
"name": "Kaltenleutgeben",
"lat": 48.11646,
"lon": 16.19956
},
"weight": 100
},
{
"from": {
"name": "Lofer",
"lat": 47.58475,
"lon": 12.69333
},
"to":{
"name": "Kaltenleutgeben",
"lat": 48.11646,
"lon": 16.19956
},
"weight": 100
},
{
"from": {
"name": "Wien",
"lat": 48.2066,
"lon": 16.37341
},
"to":{
"name": "Wien",
"lat": 48.2066,
"lon": 16.37341
},
"weight": 100
},
{
"from": {
"name": "Wien",
"lat": 48.2066,
"lon": 16.37341
},
"to":{
"name": "Berlin",
"lat": 52.52437,
"lon": 13.41053
},
"weight": 100
},
{
"from": {
"name": "Berlin",
"lat": 52.52437,
"lon": 13.41053
},
"to":{
"name": "Wien",
"lat": 48.2066,
"lon": 16.37341
},
"weight": 100
},
{
"from": {
"name": "Wien",
"lat": 48.2066,
"lon": 16.37341
},
"to":{
"name": "Wien",
"lat": 48.2066,
"lon": 16.37341
},
"weight": 100
},
{
"from": {
"name": "Wien",
"lat": 48.2066,
"lon": 16.37341
},
"to":{
"name": "Wien",
"lat": 48.2066,
"lon": 16.37341
},
"weight": 100
},
{
"from": {
"name": "Montreux",
"lat": 46.45179,
"lon": 6.94084
},
"to":{
"name": "Wien",
"lat": 48.2066,
"lon": 16.37341
},
"weight": 100
},
{
"from": {
"name": "Wien",
"lat": 48.2066,
"lon": 16.37341
},
"to":{
"name": "Berlin",
"lat": 52.52437,
"lon": 13.41053
},
"weight": 100
},
{
"from": {
"name": "Berlin",
"lat": 52.52437,
"lon": 13.41053
},
"to":{
"name": "Wien",
"lat": 48.2066,
"lon": 16.37341
},
"weight": 100
},
{
"from": {
"name": "Berlin",
"lat": 52.52437,
"lon": 13.41053
},
"to":{
"name": "Wien",
"lat": 48.2066,
"lon": 16.37341
},
"weight": 100
},
{
"from": {
"name": "Wien",
"lat": 48.2066,
"lon": 16.37341
},
"to":{
"name": "Wien",
"lat": 48.2066,
"lon": 16.37341
},
"weight": 100
},
{
"from": {
"name": "Wien",
"lat": 48.2066,
"lon": 16.37341
},
"to":{
"name": "Wien",
"lat": 48.2066,
"lon": 16.37341
},
"weight": 100
},
{
"from": {
"name": "Wien",
"lat": 48.2066,
"lon": 16.37341
},
"to":{
"name": "Wien",
"lat": 48.2066,
"lon": 16.37341
},
"weight": 100
},
{
"from": {
"name": "Wien",
"lat": 48.2066,
"lon": 16.37341
},
"to":{
"name": "Wien",
"lat": 48.2066,
"lon": 16.37341
},
"weight": 100
},
{
"from": {
"name": "Wien",
"lat": 48.2066,
"lon": 16.37341
},
"to":{
"name": "Wien",
"lat": 48.2066,
"lon": 16.37341
},
"weight": 100
},
{
"from": {
"name": "Wien",
"lat": 48.2066,
"lon": 16.37341
},
"to":{
"name": "Wien",
"lat": 48.2066,
"lon": 16.37341
},
"weight": 100
},
{
"from": {
"name": "Wien",
"lat": 48.2066,
"lon": 16.37341
},
"to":{
"name": "Wien",
"lat": 48.2066,
"lon": 16.37341
},
"weight": 100
},
{
"from": {
"name": "Wien",
"lat": 48.2066,
"lon": 16.37341
},
"to":{
"name": "Wien",
"lat": 48.2066,
"lon": 16.37341
},
"weight": 100
},
{
"from": {
"name": "Wien",
"lat": 48.2066,
"lon": 16.37341
},
"to":{
"name": "Wien",
"lat": 48.2066,
"lon": 16.37341
},
"weight": 100
},
{
"from": {
"name": "Wien",
"lat": 48.2066,
"lon": 16.37341
},
"to":{
"name": "Wien",
"lat": 48.2066,
"lon": 16.37341
},
"weight": 100
},
{
"from": {
"name": "Wien",
"lat": 48.2066,
"lon": 16.37341
},
"to":{
"name": "Wien",
"lat": 48.2066,
"lon": 16.37341
},
"weight": 100
},
{
"from": {
"name": "Wien",
"lat": 48.2066,
"lon": 16.37341
},
"to":{
"name": "Wien",
"lat": 48.2066,
"lon": 16.37341
},
"weight": 100
},
{
"from": {
"name": "Wien",
"lat": 48.2066,
"lon": 16.37341
},
"to":{
"name": "Wien",
"lat": 48.2066,
"lon": 16.37341
},
"weight": 100
},
{
"from": {
"name": "Wien",
"lat": 48.2066,
"lon": 16.37341
},
"to":{
"name": "Wien",
"lat": 48.2066,
"lon": 16.37341
},
"weight": 100
},
{
"from": {
"name": "Wien",
"lat": 48.2066,
"lon": 16.37341
},
"to":{
"name": "Wien",
"lat": 48.2066,
"lon": 16.37341
},
"weight": 100
},
{
"from": {
"name": "Wien",
"lat": 48.2066,
"lon": 16.37341
},
"to":{
"name": "Wien",
"lat": 48.2066,
"lon": 16.37341
},
"weight": 100
},
{
"from": {
"name": "Wien",
"lat": 48.2066,
"lon": 16.37341
},
"to":{
"name": "Wien",
"lat": 48.2066,
"lon": 16.37341
},
"weight": 100
},
{
"from": {
"name": "Wien",
"lat": 48.2066,
"lon": 16.37341
},
"to":{
"name": "Wien",
"lat": 48.2066,
"lon": 16.37341
},
"weight": 100
},
{
"from": {
"name": "Wien",
"lat": 48.2066,
"lon": 16.37341
},
"to":{
"name": "Wien",
"lat": 48.2066,
"lon": 16.37341
},
"weight": 100
},
{
"from": {
"name": "Wien",
"lat": 48.2066,
"lon": 16.37341
},
"to":{
"name": "Wien",
"lat": 48.2066,
"lon": 16.37341
},
"weight": 100
},
{
"from": {
"name": "Wien",
"lat": 48.2066,
"lon": 16.37341
},
"to":{
"name": "Wien",
"lat": 48.2066,
"lon": 16.37341
},
"weight": 100
},
{
"from": {
"name": "Wien",
"lat": 48.2066,
"lon": 16.37341
},
"to":{
"name": "Wien",
"lat": 48.2066,
"lon": 16.37341
},
"weight": 100
},
{
"from": {
"name": "Wien",
"lat": 48.2066,
"lon": 16.37341
},
"to":{
"name": "Wien",
"lat": 48.2066,
"lon": 16.37341
},
"weight": 100
},
{
"from": {
"name": "Wien",
"lat": 48.2066,
"lon": 16.37341
},
"to":{
"name": "Wien",
"lat": 48.2066,
"lon": 16.37341
},
"weight": 100
},
{
"from": {
"name": "Wien",
"lat": 48.2066,
"lon": 16.37341
},
"to":{
"name": "Wien",
"lat": 48.2066,
"lon": 16.37341
},
"weight": 100
},
{
"from": {
"name": "Wien",
"lat": 48.2066,
"lon": 16.37341
},
"to":{
"name": "Wien",
"lat": 48.2066,
"lon": 16.37341
},
"weight": 100
},
{
"from": {
"name": "Wien",
"lat": 48.2066,
"lon": 16.37341
},
"to":{
"name": "Wien",
"lat": 48.2066,
"lon": 16.37341
},
"weight": 100
},
{
"from": {
"name": "Kairo",
"lat": 30.06263,
"lon": 31.24967
},
"to":{
"name": "Wien",
"lat": 48.2066,
"lon": 16.37341
},
"weight": 100
},
{
"from": {
"name": "Wien",
"lat": 48.2066,
"lon": 16.37341
},
"to":{
"name": "Wien",
"lat": 48.2066,
"lon": 16.37341
},
"weight": 100
},
{
"from": {
"name": "Wien",
"lat": 48.2066,
"lon": 16.37341
},
"to":{
"name": "Wien",
"lat": 48.2066,
"lon": 16.37341
},
"weight": 100
},
{
"from": {
"name": "Wien",
"lat": 48.2066,
"lon": 16.37341
},
"to":{
"name": "Wien",
"lat": 48.2066,
"lon": 16.37341
},
"weight": 100
},
{
"from": {
"name": "Wien",
"lat": 48.2066,
"lon": 16.37341
},
"to":{
"name": "Wien",
"lat": 48.2066,
"lon": 16.37341
},
"weight": 100
},
{
"from": {
"name": "Wien",
"lat": 48.2066,
"lon": 16.37341
},
"to":{
"name": "Wien",
"lat": 48.2066,
"lon": 16.37341
},
"weight": 100
},
{
"from": {
"name": "Wien",
"lat": 48.2066,
"lon": 16.37341
},
"to":{
"name": "Wien",
"lat": 48.2066,
"lon": 16.37341
},
"weight": 100
},
{
"from": {
"name": "Wien",
"lat": 48.2066,
"lon": 16.37341
},
"to":{
"name": "Wien",
"lat": 48.2066,
"lon": 16.37341
},
"weight": 100
},
{
"from": {
"name": "Wien",
"lat": 48.2066,
"lon": 16.37341
},
"to":{
"name": "Wien",
"lat": 48.2066,
"lon": 16.37341
},
"weight": 100
},
{
"from": {
"name": "Wien",
"lat": 48.2066,
"lon": 16.37341
},
"to":{
"name": "Wien",
"lat": 48.2066,
"lon": 16.37341
},
"weight": 100
},
{
"from": {
"name": "Wien",
"lat": 48.2066,
"lon": 16.37341
},
"to":{
"name": "Wien",
"lat": 48.2066,
"lon": 16.37341
},
"weight": 100
},
{
"from": {
"name": "Wien",
"lat": 48.2066,
"lon": 16.37341
},
"to":{
"name": "Wien",
"lat": 48.2066,
"lon": 16.37341
},
"weight": 100
},
{
"from": {
"name": "Wien",
"lat": 48.2066,
"lon": 16.37341
},
"to":{
"name": "Wien",
"lat": 48.2066,
"lon": 16.37341
},
"weight": 100
},
{
"from": {
"name": "Wien",
"lat": 48.2066,
"lon": 16.37341
},
"to":{
"name": "Wien",
"lat": 48.2066,
"lon": 16.37341
},
"weight": 100
},
{
"from": {
"name": "Wien",
"lat": 48.2066,
"lon": 16.37341
},
"to":{
"name": "Wien",
"lat": 48.2066,
"lon": 16.37341
},
"weight": 100
},
{
"from": {
"name": "Wien",
"lat": 48.2066,
"lon": 16.37341
},
"to":{
"name": "Wien",
"lat": 48.2066,
"lon": 16.37341
},
"weight": 100
},
{
"from": {
"name": "Wien",
"lat": 48.2066,
"lon": 16.37341
},
"to":{
"name": "Wien",
"lat": 48.2066,
"lon": 16.37341
},
"weight": 100
},
{
"from": {
"name": "Wien",
"lat": 48.2066,
"lon": 16.37341
},
"to":{
"name": "Wien",
"lat": 48.2066,
"lon": 16.37341
},
"weight": 100
},
{
"from": {
"name": "Wien",
"lat": 48.2066,
"lon": 16.37341
},
"to":{
"name": "Wien",
"lat": 48.2066,
"lon": 16.37341
},
"weight": 100
},
{
"from": {
"name": "Wien",
"lat": 48.2066,
"lon": 16.37341
},
"to":{
"name": "Wien",
"lat": 48.2066,
"lon": 16.37341
},
"weight": 100
},
{
"from": {
"name": "Wien",
"lat": 48.2066,
"lon": 16.37341
},
"to":{
"name": "Wien",
"lat": 48.2066,
"lon": 16.37341
},
"weight": 100
},
{
"from": {
"name": "Wien",
"lat": 48.2066,
"lon": 16.37341
},
"to":{
"name": "Wien",
"lat": 48.2066,
"lon": 16.37341
},
"weight": 100
},
{
"from": {
"name": "Wien",
"lat": 48.2066,
"lon": 16.37341
},
"to":{
"name": "Wien",
"lat": 48.2066,
"lon": 16.37341
},
"weight": 100
},
{
"from": {
"name": "Wien",
"lat": 48.2066,
"lon": 16.37341
},
"to":{
"name": "Wien",
"lat": 48.2066,
"lon": 16.37341
},
"weight": 100
},
{
"from": {
"name": "Wien",
"lat": 48.2066,
"lon": 16.37341
},
"to":{
"name": "Wien",
"lat": 48.2066,
"lon": 16.37341
},
"weight": 100
},
{
"from": {
"name": "Wien",
"lat": 48.2066,
"lon": 16.37341
},
"to":{
"name": "Wien",
"lat": 48.2066,
"lon": 16.37341
},
"weight": 100
},
{
"from": {
"name": "Wien",
"lat": 48.2066,
"lon": 16.37341
},
"to":{
"name": "Wien",
"lat": 48.2066,
"lon": 16.37341
},
"weight": 100
},
{
"from": {
"name": "Salzburg",
"lat": 47.80067,
"lon": 13.04532
},
"to":{
"name": "Wien",
"lat": 48.2066,
"lon": 16.37341
},
"weight": 100
},
{
"from": {
"name": "Wien",
"lat": 48.2066,
"lon": 16.37341
},
"to":{
"name": "Reichenau an der Rax",
"lat": 47.7,
"lon": 15.83333
},
"weight": 100
},
{
"from": {
"name": "Wien",
"lat": 48.2066,
"lon": 16.37341
},
"to":{
"name": "Wien",
"lat": 48.2066,
"lon": 16.37341
},
"weight": 100
},
{
"from": {
"name": "Mariazell",
"lat": 47.77306,
"lon": 15.31639
},
"to":{
"name": "Wien",
"lat": 48.2066,
"lon": 16.37341
},
"weight": 100
},
{
"from": {
"name": "Wien",
"lat": 48.2066,
"lon": 16.37341
},
"to":{
"name": "Wien",
"lat": 48.2066,
"lon": 16.37341
},
"weight": 100
},
{
"from": {
"name": "Wien",
"lat": 48.2066,
"lon": 16.37341
},
"to":{
"name": "Wien",
"lat": 48.2066,
"lon": 16.37341
},
"weight": 100
},
{
"from": {
"name": "Wien",
"lat": 48.2066,
"lon": 16.37341
},
"to":{
"name": "Wien",
"lat": 48.2066,
"lon": 16.37341
},
"weight": 100
},
{
"from": {
"name": "Berlin",
"lat": 52.52437,
"lon": 13.41053
},
"to":{
"name": "Wien",
"lat": 48.2066,
"lon": 16.37341
},
"weight": 100
},
{
"from": {
"name": "Wien",
"lat": 48.2066,
"lon": 16.37341
},
"to":{
"name": "Berlin",
"lat": 52.52437,
"lon": 13.41053
},
"weight": 100
},
{
"from": {
"name": "Berlin",
"lat": 52.52437,
"lon": 13.41053
},
"to":{
"name": "Wien",
"lat": 48.2066,
"lon": 16.37341
},
"weight": 100
},
{
"from": {
"name": "Berlin",
"lat": 52.52437,
"lon": 13.41053
},
"to":{
"name": "Wien",
"lat": 48.2066,
"lon": 16.37341
},
"weight": 100
},
{
"from": {
"name": "Berlin",
"lat": 52.52437,
"lon": 13.41053
},
"to":{
"name": "Wien",
"lat": 48.2066,
"lon": 16.37341
},
"weight": 100
},
{
"from": {
"name": "Wien",
"lat": 48.2066,
"lon": 16.37341
},
"to":{
"name": "Berlin",
"lat": 52.52437,
"lon": 13.41053
},
"weight": 100
},
{
"from": {
"name": "Berlin",
"lat": 52.52437,
"lon": 13.41053
},
"to":{
"name": "Wien",
"lat": 48.2066,
"lon": 16.37341
},
"weight": 100
},
{
"from": {
"name": "Berlin",
"lat": 52.52437,
"lon": 13.41053
},
"to":{
"name": "Wien",
"lat": 48.2066,
"lon": 16.37341
},
"weight": 100
},
{
"from": {
"name": "Berlin",
"lat": 52.52437,
"lon": 13.41053
},
"to":{
"name": "Wien",
"lat": 48.2066,
"lon": 16.37341
},
"weight": 100
},
{
"from": {
"name": "Berlin",
"lat": 52.52437,
"lon": 13.41053
},
"to":{
"name": "Wien",
"lat": 48.2066,
"lon": 16.37341
},
"weight": 100
},
{
"from": {
"name": "Berlin",
"lat": 52.52437,
"lon": 13.41053
},
"to":{
"name": "Wien",
"lat": 48.2066,
"lon": 16.37341
},
"weight": 100
},
{
"from": {
"name": "Wien",
"lat": 48.2066,
"lon": 16.37341
},
"to":{
"name": "Berlin",
"lat": 52.52437,
"lon": 13.41053
},
"weight": 100
},
{
"from": {
"name": "Berlin",
"lat": 52.52437,
"lon": 13.41053
},
"to":{
"name": "Wien",
"lat": 48.2066,
"lon": 16.37341
},
"weight": 100
},
{
"from": {
"name": "Wartburg",
"lat": 50.96605,
"lon": 10.30646
},
"to":{
"name": "Wien",
"lat": 48.2066,
"lon": 16.37341
},
"weight": 100
},
{
"from": {
"name": "Berlin",
"lat": 52.52437,
"lon": 13.41053
},
"to":{
"name": "Wien",
"lat": 48.2066,
"lon": 16.37341
},
"weight": 100
},
{
"from": {
"name": "Wien",
"lat": 48.2066,
"lon": 16.37341
},
"to":{
"name": "Berlin",
"lat": 52.52437,
"lon": 13.41053
},
"weight": 100
},
{
"from": {
"name": "Berlin",
"lat": 52.52437,
"lon": 13.41053
},
"to":{
"name": "Wien",
"lat": 48.2066,
"lon": 16.37341
},
"weight": 100
},
{
"from": {
"name": "Wien",
"lat": 48.2066,
"lon": 16.37341
},
"to":{
"name": "Berlin",
"lat": 52.52437,
"lon": 13.41053
},
"weight": 100
},
{
"from": {
"name": "Königs Wusterhausen",
"lat": 52.30141,
"lon": 13.633
},
"to":{
"name": "Wien",
"lat": 48.2066,
"lon": 16.37341
},
"weight": 100
},
{
"from": {
"name": "Weimar",
"lat": 50.97361,
"lon": 11.33806
},
"to":{
"name": "Wien",
"lat": 48.2066,
"lon": 16.37341
},
"weight": 100
},
{
"from": {
"name": "Nordsee",
"lat": 55.33333,
"lon": 3.0
},
"to":{
"name": "Wien",
"lat": 48.2066,
"lon": 16.37341
},
"weight": 100
},
{
"from": {
"name": "Stratford-upon-Avon",
"lat": 52.19166,
"lon": -1.70734
},
"to":{
"name": "Wien",
"lat": 48.2066,
"lon": 16.37341
},
"weight": 100
},
{
"from": {
"name": "Cambridge",
"lat": 52.2,
"lon": 0.11667
},
"to":{
"name": "Wien",
"lat": 48.2066,
"lon": 16.37341
},
"weight": 100
},
{
"from": {
"name": "Berlin",
"lat": 52.52437,
"lon": 13.41053
},
"to":{
"name": "Wien",
"lat": 48.2066,
"lon": 16.37341
},
"weight": 100
},
{
"from": {
"name": "Bansin",
"lat": 53.95988,
"lon": 14.12954
},
"to":{
"name": "Marienlyst",
"lat": 56.042028,
"lon": 12.601917
},
"weight": 100
},
{
"from": {
"name": "Berlin",
"lat": 52.52437,
"lon": 13.41053
},
"to":{
"name": "Marienlyst",
"lat": 56.042028,
"lon": 12.601917
},
"weight": 100
},
{
"from": {
"name": "Bansin",
"lat": 53.95988,
"lon": 14.12954
},
"to":{
"name": "Wien",
"lat": 48.2066,
"lon": 16.37341
},
"weight": 100
},
{
"from": {
"name": "Wien",
"lat": 48.2066,
"lon": 16.37341
},
"to":{
"name": "Wien",
"lat": 48.2066,
"lon": 16.37341
},
"weight": 100
},
{
"from": {
"name": "Wien",
"lat": 48.2066,
"lon": 16.37341
},
"to":{
"name": "Wien",
"lat": 48.2066,
"lon": 16.37341
},
"weight": 100
},
{
"from": {
"name": "Wien",
"lat": 48.2066,
"lon": 16.37341
},
"to":{
"name": "Wien",
"lat": 48.2066,
"lon": 16.37341
},
"weight": 100
},
{
"from": {
"name": "München",
"lat": 48.13743,
"lon": 11.57549
},
"to":{
"name": "Wien",
"lat": 48.2066,
"lon": 16.37341
},
"weight": 100
},
{
"from": {
"name": "Wien",
"lat": 48.2066,
"lon": 16.37341
},
"to":{
"name": "Wien",
"lat": 48.2066,
"lon": 16.37341
},
"weight": 100
},
{
"from": {
"name": "Wien",
"lat": 48.2066,
"lon": 16.37341
},
"to":{
"name": "Wien",
"lat": 48.2066,
"lon": 16.37341
},
"weight": 100
},
{
"from": {
"name": "Wien",
"lat": 48.2066,
"lon": 16.37341
},
"to":{
"name": "Wien",
"lat": 48.2066,
"lon": 16.37341
},
"weight": 100
},
{
"from": {
"name": "Wien",
"lat": 48.2066,
"lon": 16.37341
},
"to":{
"name": "Wien",
"lat": 48.2066,
"lon": 16.37341
},
"weight": 100
},
{
"from": {
"name": "Klamm",
"lat": 47.66001,
"lon": 15.86754
},
"to":{
"name": "Hinterbrühl ",
"lat": 48.08611,
"lon": 16.24809
},
"weight": 100
},
{
"from": {
"name": "Wien",
"lat": 48.2066,
"lon": 16.37341
},
"to":{
"name": "Welsberg-Taisten",
"lat": 46.75774,
"lon": 12.10556
},
"weight": 100
},
{
"from": {
"name": "Wien",
"lat": 48.2066,
"lon": 16.37341
},
"to":{
"name": "Welsberg-Taisten",
"lat": 46.75774,
"lon": 12.10556
},
"weight": 100
},
{
"from": {
"name": "Wien",
"lat": 48.2066,
"lon": 16.37341
},
"to":{
"name": "Wien",
"lat": 48.2066,
"lon": 16.37341
},
"weight": 100
},
{
"from": {
"name": "Marienbad",
"lat": 49.96115,
"lon": 12.72872
},
"to":{
"name": "Welsberg-Taisten",
"lat": 46.75774,
"lon": 12.10556
},
"weight": 100
},
{
"from": {
"name": "Wien",
"lat": 48.2066,
"lon": 16.37341
},
"to":{
"name": "Wien",
"lat": 48.2066,
"lon": 16.37341
},
"weight": 100
},
{
"from": {
"name": "Wien",
"lat": 48.2066,
"lon": 16.37341
},
"to":{
"name": "Wien",
"lat": 48.2066,
"lon": 16.37341
},
"weight": 100
},
{
"from": {
"name": "Berlin",
"lat": 52.52437,
"lon": 13.41053
},
"to":{
"name": "Wien",
"lat": 48.2066,
"lon": 16.37341
},
"weight": 100
},
{
"from": {
"name": "Berlin",
"lat": 52.52437,
"lon": 13.41053
},
"to":{
"name": "Wien",
"lat": 48.2066,
"lon": 16.37341
},
"weight": 100
},
{
"from": {
"name": "Wien",
"lat": 48.2066,
"lon": 16.37341
},
"to":{
"name": "Wien",
"lat": 48.2066,
"lon": 16.37341
},
"weight": 100
},
{
"from": {
"name": "Wien",
"lat": 48.2066,
"lon": 16.37341
},
"to":{
"name": "Wien",
"lat": 48.2066,
"lon": 16.37341
},
"weight": 100
},
{
"from": {
"name": "Semmering",
"lat": 47.64224,
"lon": 15.8241
},
"to":{
"name": "Wien",
"lat": 48.2066,
"lon": 16.37341
},
"weight": 100
},
{
"from": {
"name": "Wien",
"lat": 48.2066,
"lon": 16.37341
},
"to":{
"name": "Wien",
"lat": 48.2066,
"lon": 16.37341
},
"weight": 100
},
{
"from": {
"name": "Wien",
"lat": 48.2066,
"lon": 16.37341
},
"to":{
"name": "Wien",
"lat": 48.2066,
"lon": 16.37341
},
"weight": 100
},
{
"from": {
"name": "Wien",
"lat": 48.2066,
"lon": 16.37341
},
"to":{
"name": "Wien",
"lat": 48.2066,
"lon": 16.37341
},
"weight": 100
},
{
"from": {
"name": "Semmering",
"lat": 47.64224,
"lon": 15.8241
},
"to":{
"name": "Wien",
"lat": 48.2066,
"lon": 16.37341
},
"weight": 100
},
{
"from": {
"name": "Wien",
"lat": 48.2066,
"lon": 16.37341
},
"to":{
"name": "Semmering",
"lat": 47.64224,
"lon": 15.8241
},
"weight": 100
},
{
"from": {
"name": "Wien",
"lat": 48.2066,
"lon": 16.37341
},
"to":{
"name": "Wien",
"lat": 48.2066,
"lon": 16.37341
},
"weight": 100
},
{
"from": {
"name": "Wien",
"lat": 48.2066,
"lon": 16.37341
},
"to":{
"name": "Wien",
"lat": 48.2066,
"lon": 16.37341
},
"weight": 100
},
{
"from": {
"name": "Bologna",
"lat": 44.49381,
"lon": 11.33875
},
"to":{
"name": "Wien",
"lat": 48.2066,
"lon": 16.37341
},
"weight": 100
},
{
"from": {
"name": "Wien",
"lat": 48.2066,
"lon": 16.37341
},
"to":{
"name": "Wien",
"lat": 48.2066,
"lon": 16.37341
},
"weight": 100
},
{
"from": {
"name": "Noordwijk",
"lat": 52.26953,
"lon": 4.46354
},
"to":{
"name": "Seis am Schlern",
"lat": 46.54133,
"lon": 11.55868
},
"weight": 100
},
{
"from": {
"name": "Seis am Schlern",
"lat": 46.54133,
"lon": 11.55868
},
"to":{
"name": "Noordwijk",
"lat": 52.26953,
"lon": 4.46354
},
"weight": 100
},
{
"from": {
"name": "Semmering",
"lat": 47.64224,
"lon": 15.8241
},
"to":{
"name": "Wien",
"lat": 48.2066,
"lon": 16.37341
},
"weight": 100
},
{
"from": {
"name": "Grado",
"lat": 45.67774,
"lon": 13.40323
},
"to":{
"name": "Wien",
"lat": 48.2066,
"lon": 16.37341
},
"weight": 100
},
{
"from": {
"name": "Venedig",
"lat": 45.43713,
"lon": 12.33265
},
"to":{
"name": "Wien",
"lat": 48.2066,
"lon": 16.37341
},
"weight": 100
},
{
"from": {
"name": "Grado",
"lat": 45.67774,
"lon": 13.40323
},
"to":{
"name": "Wien",
"lat": 48.2066,
"lon": 16.37341
},
"weight": 100
},
{
"from": {
"name": "Grado",
"lat": 45.67774,
"lon": 13.40323
},
"to":{
"name": "Wien",
"lat": 48.2066,
"lon": 16.37341
},
"weight": 100
},
{
"from": {
"name": "Höhlenstein",
"lat": 46.641944,
"lon": 12.2322
},
"to":{
"name": "Edlach",
"lat": 47.69255,
"lon": 15.80915
},
"weight": 100
},
{
"from": {
"name": "Höhlenstein",
"lat": 46.641944,
"lon": 12.2322
},
"to":{
"name": "Edlach",
"lat": 47.69255,
"lon": 15.80915
},
"weight": 100
},
{
"from": {
"name": "Höhlenstein",
"lat": 46.641944,
"lon": 12.2322
},
"to":{
"name": "Edlach",
"lat": 47.69255,
"lon": 15.80915
},
"weight": 100
},
{
"from": {
"name": "Kaltenleutgeben",
"lat": 48.11646,
"lon": 16.19956
},
"to":{
"name": "Wien",
"lat": 48.2066,
"lon": 16.37341
},
"weight": 100
},
{
"from": {
"name": "Innsbruck",
"lat": 47.28433,
"lon": 11.37706
},
"to":{
"name": "München",
"lat": 48.13743,
"lon": 11.57549
},
"weight": 100
},
{
"from": {
"name": "Axenstein",
"lat": 46.98666,
"lon": 8.61554
},
"to":{
"name": "Wien",
"lat": 48.2066,
"lon": 16.37341
},
"weight": 100
},
{
"from": {
"name": "Wien",
"lat": 48.2066,
"lon": 16.37341
},
"to":{
"name": "Wien",
"lat": 48.2066,
"lon": 16.37341
},
"weight": 100
},
{
"from": {
"name": "Wien",
"lat": 48.2066,
"lon": 16.37341
},
"to":{
"name": "Unterach",
"lat": 47.80494,
"lon": 13.48728
},
"weight": 100
},
{
"from": {
"name": "Bad Ischl",
"lat": 47.71109,
"lon": 13.61893
},
"to":{
"name": "Unterach",
"lat": 47.80494,
"lon": 13.48728
},
"weight": 100
},
{
"from": {
"name": "Wien",
"lat": 48.2066,
"lon": 16.37341
},
"to":{
"name": "Unterach",
"lat": 47.80494,
"lon": 13.48728
},
"weight": 100
},
{
"from": {
"name": "Wien",
"lat": 48.2066,
"lon": 16.37341
},
"to":{
"name": "Wien",
"lat": 48.2066,
"lon": 16.37341
},
"weight": 100
},
{
"from": {
"name": "Wien",
"lat": 48.2066,
"lon": 16.37341
},
"to":{
"name": "Wien",
"lat": 48.2066,
"lon": 16.37341
},
"weight": 100
},
{
"from": {
"name": "Wien",
"lat": 48.2066,
"lon": 16.37341
},
"to":{
"name": "Wien",
"lat": 48.2066,
"lon": 16.37341
},
"weight": 100
},
{
"from": {
"name": "Wien",
"lat": 48.2066,
"lon": 16.37341
},
"to":{
"name": "Wien",
"lat": 48.2066,
"lon": 16.37341
},
"weight": 100
},
{
"from": {
"name": "Wien",
"lat": 48.2066,
"lon": 16.37341
},
"to":{
"name": "Unterach",
"lat": 47.80494,
"lon": 13.48728
},
"weight": 100
},
{
"from": {
"name": "Paris",
"lat": 48.85341,
"lon": 2.3488
},
"to":{
"name": "Wien",
"lat": 48.2066,
"lon": 16.37341
},
"weight": 100
},
{
"from": {
"name": "Wien",
"lat": 48.2066,
"lon": 16.37341
},
"to":{
"name": "Wien",
"lat": 48.2066,
"lon": 16.37341
},
"weight": 100
},
{
"from": {
"name": "Wien",
"lat": 48.2066,
"lon": 16.37341
},
"to":{
"name": "Wien",
"lat": 48.2066,
"lon": 16.37341
},
"weight": 100
},
{
"from": {
"name": "Wien",
"lat": 48.2066,
"lon": 16.37341
},
"to":{
"name": "Dresden",
"lat": 51.0833,
"lon": 13.7666
},
"weight": 100
},
{
"from": {
"name": "Wien",
"lat": 48.2066,
"lon": 16.37341
},
"to":{
"name": "Wien",
"lat": 48.2066,
"lon": 16.37341
},
"weight": 100
},
{
"from": {
"name": "Wien",
"lat": 48.2066,
"lon": 16.37341
},
"to":{
"name": "Wien",
"lat": 48.2066,
"lon": 16.37341
},
"weight": 100
},
{
"from": {
"name": "Wien",
"lat": 48.2066,
"lon": 16.37341
},
"to":{
"name": "Wien",
"lat": 48.2066,
"lon": 16.37341
},
"weight": 100
},
{
"from": {
"name": "Wien",
"lat": 48.2066,
"lon": 16.37341
},
"to":{
"name": "Wien",
"lat": 48.2066,
"lon": 16.37341
},
"weight": 100
},
{
"from": {
"name": "Wien",
"lat": 48.2066,
"lon": 16.37341
},
"to":{
"name": "Wien",
"lat": 48.2066,
"lon": 16.37341
},
"weight": 100
},
{
"from": {
"name": "Wien",
"lat": 48.2066,
"lon": 16.37341
},
"to":{
"name": "Wien",
"lat": 48.2066,
"lon": 16.37341
},
"weight": 100
},
{
"from": {
"name": "Wien",
"lat": 48.2066,
"lon": 16.37341
},
"to":{
"name": "Wien",
"lat": 48.2066,
"lon": 16.37341
},
"weight": 100
}
]}
]
}